{
"type": "FeatureCollection",
"name": "Mapeamento DSEP -  Sistema Penitenciário",
"crs": { "type": "name", "properties": { "name": "urn:ogc:def:crs:OGC:1.3:CRS84" } },
"features": [
{ "type": "Feature", "properties": { "Name": "1ª Delegacia Penitenciária Regional - Sede em Canoas", "description": null, "altitudeMode": "relativeToGround", "visibility": -1 }, "geometry": { "type": "Point", "coordinates": [ -51.17889075539393, -29.923076326532151 ] } },
{ "type": "Feature", "properties": { "Name": "Penitenciária Estadual de Sapucaia do Sul", "description": null, "altitudeMode": null, "visibility": -1 }, "geometry": { "type": "Point", "coordinates": [ -51.172145961226938, -29.7892082771254 ] } },
{ "type": "Feature", "properties": { "Name": "Penitenciária Estadual de Canoas", "description": null, "altitudeMode": null, "visibility": -1 }, "geometry": { "type": "Point", "coordinates": [ -51.126251353398139, -29.899573292752908 ] } },
{ "type": "Feature", "properties": { "Name": "Complexo Penitenciário de Canoas", "description": null, "altitudeMode": null, "visibility": -1 }, "geometry": { "type": "Point", "coordinates": [ -51.123864492628194, -29.898811430806681 ] } },
{ "type": "Feature", "properties": { "Name": "Instituto Penal de Canoas", "description": null, "altitudeMode": null, "visibility": -1 }, "geometry": { "type": "Point", "coordinates": [ -51.177544291973177, -29.91947324656531 ] } },
{ "type": "Feature", "properties": { "Name": "Instituto Penal de Monte Negro", "description": null, "altitudeMode": null, "visibility": -1 }, "geometry": { "type": "Point", "coordinates": [ -51.474068052151843, -29.696127065642081 ] } },
{ "type": "Feature", "properties": { "Name": "Instituto Penal de Novo Hamburgo", "description": null, "altitudeMode": null, "visibility": -1 }, "geometry": { "type": "Point", "coordinates": [ -51.1241218, -29.7028197 ] } },
{ "type": "Feature", "properties": { "Name": "Instituto Penal de São Leopoldo", "description": null, "altitudeMode": null, "visibility": -1 }, "geometry": { "type": "Point", "coordinates": [ -51.147511485824737, -29.774452832189841 ] } },
{ "type": "Feature", "properties": { "Name": "Penitenciária Modulada Estadual de Montenegro", "description": null, "altitudeMode": null, "visibility": -1 }, "geometry": { "type": "Point", "coordinates": [ -51.407483224209102, -29.78288653464757 ] } },
{ "type": "Feature", "properties": { "Name": "Penitenciária Modulada Estadual de Osório", "description": null, "altitudeMode": null, "visibility": -1 }, "geometry": { "type": "Point", "coordinates": [ -50.256883040320638, -29.958044802360199 ] } },
{ "type": "Feature", "properties": { "Name": "Presídio Estadual de Taquara", "description": null, "altitudeMode": null, "visibility": -1 }, "geometry": { "type": "Point", "coordinates": [ -50.780580466277101, -29.656379137879071 ] } },
{ "type": "Feature", "properties": { "Name": "Presídio Estadual Feminino de Torres", "description": null, "altitudeMode": null, "visibility": -1 }, "geometry": { "type": "Point", "coordinates": [ -49.738629994874103, -29.327462114131741 ] } },
{ "type": "Feature", "properties": { "Name": "2ª Delegacia Penitenciária Regional", "description": null, "altitudeMode": null, "visibility": -1 }, "geometry": { "type": "Point", "coordinates": [ -53.815720414010762, -29.695374218059559 ] } },
{ "type": "Feature", "properties": { "Name": "Instituto Penal de Santa Maria", "description": null, "altitudeMode": null, "visibility": -1 }, "geometry": { "type": "Point", "coordinates": [ -53.80247870163285, -29.70542890514416 ] } },
{ "type": "Feature", "properties": { "Name": "Presídio Regional de Santa Maria", "description": null, "altitudeMode": null, "visibility": -1 }, "geometry": { "type": "Point", "coordinates": [ -53.802832571225629, -29.70589447637343 ] } },
{ "type": "Feature", "properties": { "Name": "Penitenciária Estadual de Santa Maria", "description": null, "altitudeMode": null, "visibility": -1 }, "geometry": { "type": "Point", "coordinates": [ -53.870524121632471, -29.664414835886149 ] } },
{ "type": "Feature", "properties": { "Name": "Presídio Estadual de Agudo", "description": null, "altitudeMode": null, "visibility": -1 }, "geometry": { "type": "Point", "coordinates": [ -53.252991137979592, -29.648481513046729 ] } },
{ "type": "Feature", "properties": { "Name": "Presídio Estadual de Caçapava do Sul", "description": null, "altitudeMode": null, "visibility": -1 }, "geometry": { "type": "Point", "coordinates": [ -53.49427172182412, -30.511666634227328 ] } },
{ "type": "Feature", "properties": { "Name": "Presídio Estadual de Cacequi", "description": null, "altitudeMode": null, "visibility": -1 }, "geometry": { "type": "Point", "coordinates": [ -54.829930015087683, -29.884691112168081 ] } },
{ "type": "Feature", "properties": { "Name": "Presídio Estadual de Jaguari", "description": null, "altitudeMode": null, "visibility": -1 }, "geometry": { "type": "Point", "coordinates": [ -54.696590302861253, -29.49615800436905 ] } },
{ "type": "Feature", "properties": { "Name": "Presídio Estadual de Julio de Castilhos", "description": null, "altitudeMode": null, "visibility": -1 }, "geometry": { "type": "Point", "coordinates": [ -53.691009650258962, -29.226579594204949 ] } },
{ "type": "Feature", "properties": { "Name": "Presídio Estadual de Santiago", "description": null, "altitudeMode": null, "visibility": -1 }, "geometry": { "type": "Point", "coordinates": [ -54.887861847003009, -29.175964920762251 ] } },
{ "type": "Feature", "properties": { "Name": "Presídio Estadual de São Francisco de Assis", "description": null, "altitudeMode": null, "visibility": -1 }, "geometry": { "type": "Point", "coordinates": [ -55.1237857, -29.5512956 ] } },
{ "type": "Feature", "properties": { "Name": "Presídio Estadual de São Sepé", "description": null, "altitudeMode": null, "visibility": -1 }, "geometry": { "type": "Point", "coordinates": [ -53.559874009557348, -30.17515269848878 ] } },
{ "type": "Feature", "properties": { "Name": "Presídio Estadual de São Vicente do Sul", "description": null, "altitudeMode": null, "visibility": -1 }, "geometry": { "type": "Point", "coordinates": [ -54.676646206824628, -29.690535834074229 ] } },
{ "type": "Feature", "properties": { "Name": "3ª Delegacia Penitenciária Regional", "description": null, "altitudeMode": null, "visibility": -1 }, "geometry": { "type": "Point", "coordinates": [ -54.2659493, -28.3000473 ] } },
{ "type": "Feature", "properties": { "Name": "Instituto Penal de Ijuí", "description": null, "altitudeMode": null, "visibility": -1 }, "geometry": { "type": "Point", "coordinates": [ -53.915410199360629, -28.402426867431039 ] } },
{ "type": "Feature", "properties": { "Name": "Penitenciária Modulada de Ijuí", "description": null, "altitudeMode": null, "visibility": -1 }, "geometry": { "type": "Point", "coordinates": [ -53.924377454613342, -28.36836117707508 ] } },
{ "type": "Feature", "properties": { "Name": "Presídio Estadual de Cerro Largo", "description": null, "altitudeMode": null, "visibility": -1 }, "geometry": { "type": "Point", "coordinates": [ -54.735840012928307, -28.1495446456392 ] } },
{ "type": "Feature", "properties": { "Name": " Presídio Estadual de Cruz Alta", "description": null, "altitudeMode": null, "visibility": -1 }, "geometry": { "type": "Point", "coordinates": [ -53.616203535331579, -28.627596441060291 ] } },
{ "type": "Feature", "properties": { "Name": "Presídio Estadual de Santa Rosa", "description": null, "altitudeMode": null, "visibility": -1 }, "geometry": { "type": "Point", "coordinates": [ -54.488860217191338, -27.88399615877098 ] } },
{ "type": "Feature", "properties": { "Name": "Presídio Estadual de Santo Cristo", "description": null, "altitudeMode": null, "visibility": -1 }, "geometry": { "type": "Point", "coordinates": [ -54.662121096529333, -27.828835661882909 ] } },
{ "type": "Feature", "properties": { "Name": "Presídio Estadual de Três Passos", "description": null, "altitudeMode": null, "visibility": -1 }, "geometry": { "type": "Point", "coordinates": [ -53.921719880778923, -27.45414270736832 ] } },
{ "type": "Feature", "properties": { "Name": "Presídio Regional de Santo Ângelo", "description": null, "altitudeMode": null, "visibility": -1 }, "geometry": { "type": "Point", "coordinates": [ -54.237791123455068, -28.29028378969004 ] } },
{ "type": "Feature", "properties": { "Name": "4ª Delegacia Penitenciária Regional", "description": null, "altitudeMode": null, "visibility": -1 }, "geometry": { "type": "Point", "coordinates": [ -52.415162994356898, -28.26604291146996 ] } },
{ "type": "Feature", "properties": { "Name": "Instituto Penal de Passo Fundo", "description": null, "altitudeMode": null, "visibility": -1 }, "geometry": { "type": "Point", "coordinates": [ -52.37194173317414, -28.256850604832419 ] } },
{ "type": "Feature", "properties": { "Name": "Presídio Estadual de Carazinho", "description": null, "altitudeMode": null, "visibility": -1 }, "geometry": { "type": "Point", "coordinates": [ -52.787209150827252, -28.279896126546841 ] } },
{ "type": "Feature", "properties": { "Name": "Presídio Estadual de Erechim", "description": null, "altitudeMode": null, "visibility": -1 }, "geometry": { "type": "Point", "coordinates": [ -52.263697645974197, -27.63139178187302 ] } },
{ "type": "Feature", "properties": { "Name": "Presídio Estadual de Espumoso", "description": null, "altitudeMode": null, "visibility": -1 }, "geometry": { "type": "Point", "coordinates": [ -52.840588431702038, -28.72857884315577 ] } },
{ "type": "Feature", "properties": { "Name": "Presídio Estadual de Frederico Westphalen", "description": null, "altitudeMode": null, "visibility": -1 }, "geometry": { "type": "Point", "coordinates": [ -53.389265209273987, -27.340610353339319 ] } },
{ "type": "Feature", "properties": { "Name": "Presídio Estadual de Getúlio Vargas", "description": null, "altitudeMode": null, "visibility": -1 }, "geometry": { "type": "Point", "coordinates": [ -52.231943888013397, -27.89149053542306 ] } },
{ "type": "Feature", "properties": { "Name": "Presídio Estadual de Iraí", "description": null, "altitudeMode": null, "visibility": -1 }, "geometry": { "type": "Point", "coordinates": [ -53.251033504926987, -27.190766056656361 ] } },
{ "type": "Feature", "properties": { "Name": "Presídio Estadual de Lagoa Vermelha", "description": null, "altitudeMode": null, "visibility": -1 }, "geometry": { "type": "Point", "coordinates": [ -51.513507695676417, -28.22116903291402 ] } },
{ "type": "Feature", "properties": { "Name": "Presídio Estadual de Soledade", "description": null, "altitudeMode": null, "visibility": -1 }, "geometry": { "type": "Point", "coordinates": [ -52.504970731096279, -28.824880526385961 ] } },
{ "type": "Feature", "properties": { "Name": "Presídio Regional de Passo Fundo", "description": null, "altitudeMode": null, "visibility": -1 }, "geometry": { "type": "Point", "coordinates": [ -52.371563398194773, -28.257617917218731 ] } },
{ "type": "Feature", "properties": { "Name": "Presídio Estadual de Palmeira das Missões", "description": null, "altitudeMode": null, "visibility": -1 }, "geometry": { "type": "Point", "coordinates": [ -53.315843877852117, -27.907326590159869 ] } },
{ "type": "Feature", "properties": { "Name": "Presídio Estadual de Sarandi", "description": null, "altitudeMode": null, "visibility": -1 }, "geometry": { "type": "Point", "coordinates": [ -52.929547659466778, -27.938807398479039 ] } },
{ "type": "Feature", "properties": { "Name": "5ª Delegacia Penitenciária Regional - Sede em Pelotas", "description": null, "altitudeMode": null, "visibility": -1 }, "geometry": { "type": "Point", "coordinates": [ -52.3353662, -31.7624972 ] } },
{ "type": "Feature", "properties": { "Name": "Presídio Estadual de Camaquã", "description": null, "altitudeMode": null, "visibility": -1 }, "geometry": { "type": "Point", "coordinates": [ -51.816404748977632, -30.844731233068192 ] } },
{ "type": "Feature", "properties": { "Name": "Penitenciária Estadual de Rio Grande", "description": null, "altitudeMode": null, "visibility": -1 }, "geometry": { "type": "Point", "coordinates": [ -52.239349939225718, -32.086988892104962 ] } },
{ "type": "Feature", "properties": { "Name": "Presídio Estadual de Jaguarão", "description": null, "altitudeMode": null, "visibility": -1 }, "geometry": { "type": "Point", "coordinates": [ -53.379539027936232, -32.568983182127482 ] } },
{ "type": "Feature", "properties": { "Name": "Presídio Estadual de Canguçu", "description": null, "altitudeMode": null, "visibility": -1 }, "geometry": { "type": "Point", "coordinates": [ -52.690512812877458, -31.385902378955141 ] } },
{ "type": "Feature", "properties": { "Name": "Presídio Estadual de Santa Vitória do Palmar", "description": null, "altitudeMode": null, "visibility": -1 }, "geometry": { "type": "Point", "coordinates": [ -53.369939282469531, -33.525113782571687 ] } },
{ "type": "Feature", "properties": { "Name": "6ª Delegacia Penitenciária Regional - Sede em Santana do Livramento", "description": null, "altitudeMode": "relativeToGround", "visibility": -1 }, "geometry": { "type": "Point", "coordinates": [ -55.5299099, -30.885511 ] } },
{ "type": "Feature", "properties": { "Name": "Presídio Regional de Pelotas", "description": null, "altitudeMode": null, "visibility": -1 }, "geometry": { "type": "Point", "coordinates": [ -52.32961513748694, -31.731238109826101 ] } },
{ "type": "Feature", "properties": { "Name": "Presídio Estadual de Alegrete", "description": null, "altitudeMode": "relativeToGround", "visibility": -1 }, "geometry": { "type": "Point", "coordinates": [ -55.7964061, -29.7931121 ] } },
{ "type": "Feature", "properties": { "Name": "Presídio Regional de Bagé", "description": null, "altitudeMode": "relativeToGround", "visibility": -1 }, "geometry": { "type": "Point", "coordinates": [ -54.127119099999987, -31.3425624 ] } },
{ "type": "Feature", "properties": { "Name": "Instituto Penal de Bagé", "description": null, "altitudeMode": "relativeToGround", "visibility": -1 }, "geometry": { "type": "Point", "coordinates": [ -54.1277722, -31.343774 ] } },
{ "type": "Feature", "properties": { "Name": "Presídio Estadual De Dom Pedrito", "description": null, "altitudeMode": "relativeToGround", "visibility": -1 }, "geometry": { "type": "Point", "coordinates": [ -54.6676824, -30.9962097 ] } },
{ "type": "Feature", "properties": { "Name": "Presídio Estadual de Itaqui - SUSEPE", "description": null, "altitudeMode": "relativeToGround", "visibility": -1 }, "geometry": { "type": "Point", "coordinates": [ -56.5589181, -29.1223803 ] } },
{ "type": "Feature", "properties": { "Name": "Presídio Estadual de Lavras do Sul", "description": null, "altitudeMode": "relativeToGround", "visibility": -1 }, "geometry": { "type": "Point", "coordinates": [ -53.9027851, -30.8112128 ] } },
{ "type": "Feature", "properties": { "Name": "Presídio Estadual de Quaraí", "description": null, "altitudeMode": null, "visibility": -1 }, "geometry": { "type": "Point", "coordinates": [ -56.438946259513358, -30.385407947397908 ] } },
{ "type": "Feature", "properties": { "Name": "Presídio Estadual de Rosário do Sul", "description": null, "altitudeMode": "relativeToGround", "visibility": -1 }, "geometry": { "type": "Point", "coordinates": [ -54.9222882, -30.2702493 ] } },
{ "type": "Feature", "properties": { "Name": "Presídio Estadual de Santana do Livramento", "description": null, "altitudeMode": "relativeToGround", "visibility": -1 }, "geometry": { "type": "Point", "coordinates": [ -55.5326627, -30.8574076 ] } },
{ "type": "Feature", "properties": { "Name": "Presídio Estadual de São Borja-Susepe", "description": null, "altitudeMode": "relativeToGround", "visibility": -1 }, "geometry": { "type": "Point", "coordinates": [ -56.0151049, -28.6408799 ] } },
{ "type": "Feature", "properties": { "Name": "Presídio Estadual São Gabriel-Susepe", "description": null, "altitudeMode": "relativeToGround", "visibility": -1 }, "geometry": { "type": "Point", "coordinates": [ -54.313540200000013, -30.3372081 ] } },
{ "type": "Feature", "properties": { "Name": "Instituto Penal de Uruguaiana ", "description": null, "altitudeMode": "relativeToGround", "visibility": -1 }, "geometry": { "type": "Point", "coordinates": [ -57.0832661, -29.7664834 ] } },
{ "type": "Feature", "properties": { "Name": "PENITENCIÁRIA MODULADA ESTADUAL DE URUGUAIANA", "description": null, "altitudeMode": "relativeToGround", "visibility": -1 }, "geometry": { "type": "Point", "coordinates": [ -57.0921203, -29.8501715 ] } },
{ "type": "Feature", "properties": { "Name": "7ª Delegacia Penitenciária Regional", "description": null, "altitudeMode": null, "visibility": -1 }, "geometry": { "type": "Point", "coordinates": [ -51.152578405328633, -29.164499963673169 ] } },
{ "type": "Feature", "properties": { "Name": "Instituto Penal de Caxias do Sul", "description": null, "altitudeMode": null, "visibility": -1 }, "geometry": { "type": "Point", "coordinates": [ -51.158761721792047, -29.16188845098289 ] } },
{ "type": "Feature", "properties": { "Name": "Penitenciária Estadual de Bento Gonçalves", "description": null, "altitudeMode": null, "visibility": -1 }, "geometry": { "type": "Point", "coordinates": [ -51.476631225063379, -29.150851814206959 ] } },
{ "type": "Feature", "properties": { "Name": "Penitenciária Estadual de Caxias do Sul", "description": null, "altitudeMode": null, "visibility": -1 }, "geometry": { "type": "Point", "coordinates": [ -50.871043419145579, -29.08273489390497 ] } },
{ "type": "Feature", "properties": { "Name": "Presídio Estadual de Canela", "description": null, "altitudeMode": null, "visibility": -1 }, "geometry": { "type": "Point", "coordinates": [ -50.816732096093197, -29.355772610317668 ] } },
{ "type": "Feature", "properties": { "Name": "Presídio Estadual de Guaporé", "description": null, "altitudeMode": null, "visibility": -1 }, "geometry": { "type": "Point", "coordinates": [ -51.877678834253643, -28.856901095580799 ] } },
{ "type": "Feature", "properties": { "Name": "Presídio Estadual de Nova Prata", "description": null, "altitudeMode": null, "visibility": -1 }, "geometry": { "type": "Point", "coordinates": [ -51.609516771220179, -28.793137009114549 ] } },
{ "type": "Feature", "properties": { "Name": "Presídio Estadual de São Francisco de Paula", "description": null, "altitudeMode": null, "visibility": -1 }, "geometry": { "type": "Point", "coordinates": [ -50.579431543531911, -29.451691862370179 ] } },
{ "type": "Feature", "properties": { "Name": "Presídio Estadual de Vacaria", "description": null, "altitudeMode": null, "visibility": -1 }, "geometry": { "type": "Point", "coordinates": [ -50.942313753815213, -28.4997458849959 ] } },
{ "type": "Feature", "properties": { "Name": "Presídio Regional de Caxias do Sul", "description": null, "altitudeMode": null, "visibility": -1 }, "geometry": { "type": "Point", "coordinates": [ -51.157176532955752, -29.16166847372067 ] } },
{ "type": "Feature", "properties": { "Name": "8ª Delegacia Penitenciária Regional - Sede em Santa Cruz do Sul", "description": null, "altitudeMode": "relativeToGround", "visibility": -1 }, "geometry": { "type": "Point", "coordinates": [ -52.4357385, -29.7072335 ] } },
{ "type": "Feature", "properties": { "Name": "Presídio Estadual Arroio do Meio-Susepe", "description": null, "altitudeMode": "relativeToGround", "visibility": -1 }, "geometry": { "type": "Point", "coordinates": [ -51.9524392, -29.3906112 ] } },
{ "type": "Feature", "properties": { "Name": "Presídio Estadual de Candelária do Sul", "description": null, "altitudeMode": "relativeToGround", "visibility": -1 }, "geometry": { "type": "Point", "coordinates": [ -52.776869899999987, -29.6821538 ] } },
{ "type": "Feature", "properties": { "Name": "Presídio Estadual de Cachoeira do Sul", "description": null, "altitudeMode": "relativeToGround", "visibility": -1 }, "geometry": { "type": "Point", "coordinates": [ -52.8769843, -30.0471487 ] } },
{ "type": "Feature", "properties": { "Name": "Presídio Estadual Encantado-Susepe", "description": null, "altitudeMode": "relativeToGround", "visibility": -1 }, "geometry": { "type": "Point", "coordinates": [ -51.8677577, -29.239196 ] } },
{ "type": "Feature", "properties": { "Name": "Presídio Estadual de Lajeado", "description": null, "altitudeMode": "relativeToGround", "visibility": -1 }, "geometry": { "type": "Point", "coordinates": [ -51.9774481, -29.4519872 ] } },
{ "type": "Feature", "properties": { "Name": "Presídio Estadual de Encruzilhada do Sul", "description": null, "altitudeMode": "relativeToGround", "visibility": -1 }, "geometry": { "type": "Point", "coordinates": [ -52.5149231, -30.5545922 ] } },
{ "type": "Feature", "properties": { "Name": "Penitenciária Estadual de Venâncio Aires", "description": null, "altitudeMode": "relativeToGround", "visibility": -1 }, "geometry": { "type": "Point", "coordinates": [ -52.1003705, -29.6574395 ] } },
{ "type": "Feature", "properties": { "Name": "Presídio Estadual Feminino de Lajeado Miguel Alcides Feldens", "description": null, "altitudeMode": "relativeToGround", "visibility": -1 }, "geometry": { "type": "Point", "coordinates": [ -51.9768888, -29.4519685 ] } },
{ "type": "Feature", "properties": { "Name": "Presídio Estadual de Rio Pardo", "description": null, "altitudeMode": "relativeToGround", "visibility": -1 }, "geometry": { "type": "Point", "coordinates": [ -52.376776199999988, -29.9845736 ] } },
{ "type": "Feature", "properties": { "Name": "Presídio Regional de Santa Cruz do Sul", "description": null, "altitudeMode": "relativeToGround", "visibility": -1 }, "geometry": { "type": "Point", "coordinates": [ -52.4366444, -29.742868 ] } },
{ "type": "Feature", "properties": { "Name": "Presidio Estadual de Sobradinho", "description": null, "altitudeMode": "relativeToGround", "visibility": -1 }, "geometry": { "type": "Point", "coordinates": [ -53.0241476, -29.4254488 ] } },
{ "type": "Feature", "properties": { "Name": "9ª Delegacia Penitenciária Regional", "description": null, "altitudeMode": null, "visibility": -1 }, "geometry": { "type": "Point", "coordinates": [ -51.59200431819594, -29.959660140657491 ] } },
{ "type": "Feature", "properties": { "Name": "Centro de Custódia Hospitalar de Charqueadas", "description": null, "altitudeMode": null, "visibility": -1 }, "geometry": { "type": "Point", "coordinates": [ -51.637601302182283, -29.96711262695106 ] } },
{ "type": "Feature", "properties": { "Name": "Colônia Penal Agrícola - Charqueadas", "description": null, "altitudeMode": null, "visibility": -1 }, "geometry": { "type": "Point", "coordinates": [ -51.60870237320443, -30.007190648731399 ] } },
{ "type": "Feature", "properties": { "Name": "Instituto Penal de Charqueadas", "description": null, "altitudeMode": null, "visibility": -1 }, "geometry": { "type": "Point", "coordinates": [ -51.590221619839973, -29.95833206177522 ] } },
{ "type": "Feature", "properties": { "Name": "Penitenciária de Alta Segurança de Charqueadas", "description": null, "altitudeMode": null, "visibility": -1 }, "geometry": { "type": "Point", "coordinates": [ -51.594905281647087, -29.95539754247886 ] } },
{ "type": "Feature", "properties": { "Name": "Penitenciária Estadual de Arroio dos Ratos", "description": null, "altitudeMode": null, "visibility": -1 }, "geometry": { "type": "Point", "coordinates": [ -51.70166, -30.109039 ] } },
{ "type": "Feature", "properties": { "Name": "Penitenciária Estadual de Charqueadas", "description": null, "altitudeMode": null, "visibility": -1 }, "geometry": { "type": "Point", "coordinates": [ -51.591171668776958, -29.9535822210871 ] } },
{ "type": "Feature", "properties": { "Name": "Penitenciária Estadual do Jacuí ", "description": null, "altitudeMode": null, "visibility": -1 }, "geometry": { "type": "Point", "coordinates": [ -51.595835561497907, -29.945492344452731 ] } },
{ "type": "Feature", "properties": { "Name": "Penitenciária Modulada Estadual de Charqueadas", "description": null, "altitudeMode": null, "visibility": -1 }, "geometry": { "type": "Point", "coordinates": [ -51.591252535495748, -29.96048633914895 ] } },
{ "type": "Feature", "properties": { "Name": "Presídio Estadual de São Jerônimo", "description": null, "altitudeMode": null, "visibility": -1 }, "geometry": { "type": "Point", "coordinates": [ -51.726217748892047, -29.96073832395269 ] } },
{ "type": "Feature", "properties": { "Name": "10ª Delegacia Penitenciária", "description": null, "altitudeMode": null, "visibility": -1 }, "geometry": { "type": "Point", "coordinates": [ -51.186188021621597, -30.062494694674459 ] } },
{ "type": "Feature", "properties": { "Name": "Instituto Psiquiátrico Forense", "description": null, "altitudeMode": null, "visibility": -1 }, "geometry": { "type": "Point", "coordinates": [ -51.186565526432943, -30.062336053249279 ] } },
{ "type": "Feature", "properties": { "Name": "Cadeia Pública de Porto Alegre", "description": null, "altitudeMode": null, "visibility": -1 }, "geometry": { "type": "Point", "coordinates": [ -51.1830564, -30.0724703 ] } },
{ "type": "Feature", "properties": { "Name": "Centro de Triagem Poa", "description": null, "altitudeMode": null, "visibility": -1 }, "geometry": { "type": "Point", "coordinates": [ -51.185317899730506, -30.060656228098921 ] } },
{ "type": "Feature", "properties": { "Name": "Centro de Custódia Hospitalar Vila Nova", "description": null, "altitudeMode": null, "visibility": -1 }, "geometry": { "type": "Point", "coordinates": [ -51.207773316688218, -30.119389317127141 ] } },
{ "type": "Feature", "properties": { "Name": "Patronato Lima Drummond", "description": null, "altitudeMode": null, "visibility": -1 }, "geometry": { "type": "Point", "coordinates": [ -51.208048028424557, -30.074666026711721 ] } },
{ "type": "Feature", "properties": { "Name": "Penitenciária Estadual de Porto Alegre", "description": null, "altitudeMode": null, "visibility": -1 }, "geometry": { "type": "Point", "coordinates": [ -51.181936805274937, -30.072628055454761 ] } },
{ "type": "Feature", "properties": { "Name": "Presídio Estadual Feminino Madre Pelletier", "description": null, "altitudeMode": null, "visibility": -1 }, "geometry": { "type": "Point", "coordinates": [ -51.208350401268362, -30.07768473109542 ] } },
{ "type": "Feature", "properties": { "Name": "Instituto Penal Feminino de Porto Alegre", "description": null, "altitudeMode": null, "visibility": -1 }, "geometry": { "type": "Point", "coordinates": [ -51.185356959665079, -30.062385771678489 ] } },
{ "type": "Feature", "properties": { "Name": "Instituto Penal Irmão Miguel Dario", "description": null, "altitudeMode": null, "visibility": -1 }, "geometry": { "type": "Point", "coordinates": [ -51.13674367549288, -30.068757097463031 ] } },
{ "type": "Feature", "properties": { "Name": "Instituto Penal de Gravataí", "description": null, "altitudeMode": null, "visibility": -1 }, "geometry": { "type": "Point", "coordinates": [ -50.998251660196253, -29.932633045951999 ] } },
{ "type": "Feature", "properties": { "Name": "Penitenciária Estadual Feminina de Guaíba", "description": null, "altitudeMode": null, "visibility": -1 }, "geometry": { "type": "Point", "coordinates": [ -51.360902186053941, -30.150040047280651 ] } }
]
}
